{
	"tenantId": "cg.dhamtari",
	"moduleName": "egov-location",
	"TenantBoundary": [
		{
			"hierarchyType": {
				"code": "REVENUE",
				"name": "REVENUE"
			},
			"boundary": {
				"id": 1,
				"boundaryNum": 1,
				"name": "Dhamtari",
				"localname": "Dhamtari",
				"longitude": 81.458008,
				"latitude": 21.231903,
				"label": "City",
				"code": "cg.dhamtari",
				"children": [
					{
						"id": "1c5dbabd-e04a-44e1-ac27-1fea19fac28f",
						"boundaryNum": 1,
						"name": "ZONE 1",
						"localname": "ZONE 1",
						"longitude": 81.458008,
						"latitude": 21.231903,
						"label": "Zone",
						"code": "DHZ1",
						"children": [
							{
								"id": "1c7d8d00-7678-4fd4-8dd2-2802daa7249b",
								"boundaryNum": 1,
								"name": "HATKESHAR WARD",
								"localname": "WARD_1",
								"longitude": 81.53622,
								"latitude": 20.72009,
								"label": "Block",
								"code": "WARD1",
								"children": [
									{
										"id": "6e286d0a-d141-49b2-8d3e-35cb7251fdee",
										"boundaryNum": 1,
										"name": "Hatkeshar ward",
										"localname": "Hatkeshar ward",
										"longitude": null,
										"latitude": null,
										"label": "Locality",
										"code": "DH01",
										"pincode": [
											492003
										],
										"area": "Area1",
										"children": []
									}
								]
							},
							{
								"id": "8b6a74db-d5d0-40ec-a810-df4a319acfb9",
								"boundaryNum": 1,
								"name": "SHITLAPARA WARD",
								"localname": "WARD_2",
								"longitude": 81.39937,
								"latitude": 20.71439,
								"label": "Block",
								"code": "WARD2",
								"children": [
									{
										"id": "f3cabc5a-8596-4c4c-ad05-9863342fa176",
										"boundaryNum": 1,
										"name": "shitlapara ward",
										"localname": "shitlapara ward",
										"longitude": 81.39937,
										"latitude": 20.71439,
										"label": "Locality",
										"code": "DH02",
										"pincode": [492003],
										"area": "Area1",
										"children": []
									}
								]
							},
							{
								"id": "eee94089-c88f-4d2e-a980-06b5372dd856",
								"boundaryNum": 1,
								"name": "LALBAGICHA WARD",
								"localname": "WARD_3",
								"longitude": 81.54588,
								"latitude": 20.71016,
								"label": "Block",
								"code": "WARD3",
								"children": [
									{
										"id": "11448ad3-ff6a-4026-8d9a-d3d0cdb75680",
										"boundaryNum": 1,
										"name": "Lalbagicha ward",
										"localname": "Lalbagicha ward",
										"longitude": 81.54588,
										"latitude": 20.71016,
										"label": "Locality",
										"code": "DH03",
										"pincode":[492003],
										"area": "Area1",
										"children": []
									}
								]
							},
							{
								"id": "4236b1c1-1f00-4b4f-a246-7c50af752d66",
								"boundaryNum": 1,
								"name": "SUNDERGANJ WARD",
								"localname": "WARD_4",
								"longitude": 81.54687,
								"latitude": 20.71936,
								"label": "Block",
								"code": "WARD4",
								"children": [
									{
										"id": "7a9a4d9a-9b88-4e5e-a496-293e3d03475a",
										"boundaryNum": 1,
										"name": "sunderganj ward",
										"localname": "sunderganj ward",
										"longitude": 81.54687,
										"latitude": 20.71936,
										"label": "Locality",
										"code": "DH04",
										"pincode": [492003],
										"area": "Area1",
										"children": []
									}
								]
							},
							{
								"id": "77ebd09e-7fa6-4d98-814e-1a8e1fe6c28b",
								"boundaryNum": 1,
								"name": "SARDAR VALLABH BHAI PATEL WARD",
								"localname": "WARD_5",
								"longitude": 81.55408,
								"latitude": 20.72732,
								"label": "Block",
								"code": "WARD5",
								"children": [
									{
										"id": "9fc4a924-7aed-4fd7-9bef-fa910776797f",
										"boundaryNum": 1,
										"name": "sardar vallabh bhai patel ward",
										"localname": "sardar vallabh bhai patel ward",
										"longitude": 81.55408,
										"latitude": 20.72732,
										"label": "Locality",
										"code": "DH05",
										"pincode": [492003],
										"area": "Area2",
										"children": []
									}
								]
							},
							{
								"id": "1fe5613e-69ae-4170-9573-297cec606d62",
								"boundaryNum": 1,
								"name": "BATHENA WARD",
								"localname": "WARD_6",
								"longitude": 81.55672,
								"latitude": 20.7222,
								"label": "Block",
								"code": "WARD6",
								"children": [
									{
										"id": "a8645f32-204d-401e-aa7c-6993cfff9624",
										"boundaryNum": 1,
										"name": "Bathena ward",
										"localname": "Bathena ward",
										"longitude": 81.55672,
										"latitude": 20.7222,
										"label": "Locality",
										"code": "DH06",
										"pincode":[492003],
										"area": "Area2",
										"children": []
									}
								]
							},
							{
								"id": "94d79e3b-44d7-41b8-bcc9-338de470b016",
								"boundaryNum": 1,
								"name": "AAUDYOGIK WARD",
								"localname": "WARD_7",
								"longitude": 81.5519,
								"latitude": 20.71546,
								"label": "Block",
								"code": "WARD7",
								"children": [
									{
										"id": "652bf15d-633f-4d73-93b2-22aaa591e7be",
										"boundaryNum": 1,
										"name": "Aaudyogik ward",
										"localname": "Aaudyogik ward",
										"longitude": 81.5519,
										"latitude": 20.71546,
										"label": "Locality",
										"code": "DH07",
										"pincode": [492003],
										"area": "Area2",
										"children": []
									}
								]
							},
							{
								"id": "56cbb28e-c1fd-4375-8c27-bf10c666ffd0",
								"boundaryNum": 1,
								"name": "ADHARI NAVAGAON WARD",
								"localname": "WARD_8",
								"longitude": 81.55755,
								"latitude": 20.71394,
								"label": "Block",
								"code": "WARD8",
								"children": [
									{
										"id": "0b3b503d-1cf8-4f46-859c-f224616a57ee",
										"boundaryNum": 1,
										"name": "Adhari navagaon ward",
										"localname": "Adhari navagaon ward",
										"longitude": 81.55755,
										"latitude": 20.71394,
										"label": "Locality",
										"code": "DH08",
										"pincode":[492003],
										"area": "Area2",
										"children": []
									}
								]
							},
							{
								"id": "541edcf1-e40b-4c89-806e-0fb7c78db168",
								"boundaryNum": 1,
								"name": "MAKESHWAR WARD",
								"localname": "WARD_9",
								"longitude": 81.55202,
								"latitude": 20.71042,
								"label": "Block",
								"code": "WARD9",
								"children": [
									{
										"id": "acf47450-c3e0-4a6d-a78c-0678f0f74035",
										"boundaryNum": 1,
										"name": "Makeshwar ward",
										"localname": "Makeshwar ward",
										"longitude": 81.55202,
										"latitude": 20.71042,
										"label": "Locality",
										"code": "DH09",
										"pincode":[493221],
										"area": "Area2",
										"children": []
									}
								]
							},
							{
								"id": "64d2ca12-fc43-459b-aeb1-60d5955a8b1c",
								"boundaryNum": 1,
								"name": "SHYAMAPRASAD MUKHERJI WARD",
								"localname": "WARD_10",
								"longitude": 81.55935,
								"latitude": 20.70792,
								"label": "Block",
								"code": "WARD10",
								"children": [
									{
										"id": "b68957d3-63ba-4755-a640-88b58e9fe4f0",
										"boundaryNum": 1,
										"name": "Shyamaprasad mukherji ward",
										"localname": "Shyamaprasad mukherji ward",
										"longitude": 81.55935,
										"latitude": 20.70792,
										"label": "Locality",
										"code": "DH10",
										"pincode":[493221],
										"area": "Area2",
										"children": []
									}
								]
							},
							{
								"id": "9dfddd58-8405-4ac1-8bc2-7380197c116c",
								"boundaryNum": 1,
								"name": "AAMAPARA WARD",
								"localname": "WARD_11",
								"longitude": 81.55025,
								"latitude": 20.70726,
								"label": "Block",
								"code": "WARD11",
								"children": [
									{
										"id": "4c51c978-709b-4658-b5c0-4538d8faf165",
										"boundaryNum": 1,
										"name": "Aamapara ward",
										"localname": "Aamapara ward",
										"longitude": 81.55025,
										"latitude": 20.70726,
										"label": "Locality",
										"code": "DH11",
										"pincode":[493221],
										"area": "Area2",
										"children": []
									}
								]
							},
							{
								"id": "8237ec14-77d7-47c8-ad9e-1ab24dc7bfd1",
								"boundaryNum": 1,
								"name": "MAHANT GHASIDAS WARD",
								"localname": "WARD_12",
								"longitude": 81.5545,
								"latitude": 20.7066,
								"label": "Block",
								"code": "WARD12",
								"children": [
									{
										"id": "40e9b369-41b7-4112-9c05-defe46491b41",
										"boundaryNum": 1,
										"name": "Mahant ghasidas ward",
										"localname": "Mahant ghasidas ward",
										"longitude": 81.5545,
										"latitude": 20.7066,
										"label": "Locality",
										"code": "DH12",
										"pincode":[493221],
										"area": "Area2",
										"children": []
									}
								]
							},
							{
								"id": "504830d6-f9e3-4052-8538-673437fc0937",
								"boundaryNum": 1,
								"name": "SALHEWARPARA WARD",
								"localname": "WARD_13",
								"longitude": 81.55283,
								"latitude": 20.70536,
								"label": "Block",
								"code": "WARD13",
								"children": [
									{
										"id": "3adb91b5-fdfd-4a1e-b69d-bfa8f4d84a2c",
										"boundaryNum": 1,
										"name": "Salhewarpara ward",
										"localname": "Salhewarpara ward",
										"longitude": 81.55283,
										"latitude": 20.70536,
										"label": "Locality",
										"code": "DH13",
										"pincode":[493221],
										"area": "Area2",
										"children": []
									}
								]
							},
							{
								"id": "a08750d0-b3fd-4ff5-ba24-d4729d1ef376",
								"boundaryNum": 1,
								"name": "SADAR UTTAR WARD",
								"localname": "WARD_14",
								"longitude": 81.55111,
								"latitude": 20.70318,
								"label": "Block",
								"code": "WARD14",
								"children": [
									{
										"id": "cc4598f8-2d2e-4dc4-8807-eeab60bcc105",
										"boundaryNum": 1,
										"name": "Sadar uttar ward",
										"localname": "Sadar uttar ward",
										"longitude": 81.55111,
										"latitude": 20.70318,
										"label": "Locality",
										"code": "DH14",
										"pincode":[493221],
										"area": "Area2",
										"children": []
									}
								]
							},
							{
								"id": "2f52aaf8-5ce9-4966-9b2e-6217cbe19714",
								"boundaryNum": 1,
								"name": "BRAMHANPARA WARD",
								"localname": "WARD_15",
								"longitude": 81.55231,
								"latitude": 20.70037,
								"label": "Block",
								"code": "WARD15",
								"children": [
									{
										"id": "f1629cc6-a575-4b33-826a-fe87cd02a016",
										"boundaryNum": 1,
										"name": "Bramhanpara ward",
										"localname": "Bramhanpara ward",
										"longitude": 81.55231,
										"latitude": 20.70037,
										"label": "Locality",
										"code": "DH15",
										"pincode":[493221],
										"area": "Area2",
										"children": []
									}
								]
							},
							{
								"id": "d5b787fc-f2ad-4994-ac76-652094057007",
								"boundaryNum": 1,
								"name": "KOSHTAPARA WARD",
								"localname": "WARD_16",
								"longitude": 81.55474,
								"latitude": 20.70153,
								"label": "Block",
								"code": "WARD16",
								"children": [
									{
										"id": "45bfa2b7-99b1-4d86-a6ba-f3a3dc09bfb5",
										"boundaryNum": 1,
										"name": "Koshtapara ward",
										"localname": "Koshtapara ward",
										"longitude": 81.55474,
										"latitude": 20.70153,
										"label": "Locality",
										"code": "DH16",
										"pincode":[493221],
										"area": "Area2",
										"children": []
									}
								]
							},
							{
								"id": "ce011818-c33f-464f-86f8-ddddf9f84632",
								"boundaryNum": 1,
								"name": "JALAMPUR WARD",
								"localname": "WARD_17",
								"longitude": 81.56111,
								"latitude": 20.70107,
								"label": "Block",
								"code": "WARD17",
								"children": [
									{
										"id": "0f04dae6-7d44-40d7-addf-3c6e79c46120",
										"boundaryNum": 1,
										"name": "Jalampur ward",
										"localname": "Jalampur ward",
										"longitude": 81.56111,
										"latitude": 20.70107,
										"label": "Locality",
										"code": "DH17",
										"pincode": [493221],
										"area": "Area2",
										"children": []
									}
								]
							},
							{
								"id": "7dc79bf2-5da9-421b-961a-caae97c3bd82",
								"boundaryNum": 1,
								"name": "VINDHYAVASINI WARD",
								"localname": "WARD_18",
								"longitude": 81.55666,
								"latitude": 20.69627,
								"label": "Block",
								"code": "WARD18",
								"children": [
									{
										"id": "3987e100-7729-41ac-892a-43728ec214e8",
										"boundaryNum": 1,
										"name": "Vindhyavasini ward",
										"localname": "Vindhyavasini ward",
										"longitude": 81.55666,
										"latitude": 20.69627,
										"label": "Locality",
										"code": "DH18",
										"pincode": [493221],
										"area": "Area2",
										"children": []
									}
								]
							},
							{
								"id": "ecb3a6b1-0248-437e-aa2e-597339ee4d85",
								"boundaryNum": 1,
								"name": "DANITOLA WARD",
								"localname": "WARD_19",
								"longitude": 81.56398,
								"latitude": 20.69275,
								"label": "Block",
								"code": "WARD19",
								"children": [
									{
										"id": "c4189fe2-4531-4e04-b3a0-e8228ec1a23d",
										"boundaryNum": 1,
										"name": "Danitola ward",
										"localname": "Danitola ward",
										"longitude": 81.56398,
										"latitude": 20.69275,
										"label": "Locality",
										"code": "DH19",
										"pincode": [493221],
										"area": "Area2",
										"children": []
									}
								]
							},
							{
								"id": "6a39ee47-629e-408f-ac5d-70b9278d1504",
								"boundaryNum": 1,
								"name": "MAHATMA GANDHI WARD",
								"localname": "WARD_20",
								"longitude": 81.55523,
								"latitude": 20.68429,
								"label": "Block",
								"code": "WARD20",
								"children": [
									{
										"id": "fa2b351a-8318-41d4-aea1-1b3a061da1a2",
										"boundaryNum": 1,
										"name": "Mahatma gandhi ward",
										"localname": "Mahatma gandhi ward",
										"longitude": 81.55523,
										"latitude": 20.68429,
										"label": "Locality",
										"code": "DH20",
										"pincode": [492003],
										"area": "Area2",
										"children": []
									}
								]
							},
							{
								"id": "7b130a6c-5915-4cf3-a211-fe3d0ed073f3",
								"boundaryNum": 1,
								"name": "MAHIMASAGAR WARD",
								"localname": "WARD_21",
								"longitude": 81.56026,
								"latitude": 20.68616,
								"label": "Block",
								"code": "WARD21",
								"children": [
									{
										"id": "37f37419-7044-4b7e-b576-166bd482f48b",
										"boundaryNum": 1,
										"name": "Mahimasagar ward",
										"localname": "Mahimasagar ward",
										"longitude": 81.56026,
										"latitude": 20.68616,
										"label": "Locality",
										"code": "DH21",
										"pincode":[492003],
										"area": "Area2",
										"children": []
									}
								]
							},
							{
								"id": "4e53381b-7678-4a72-af5b-63060d95f588",
								"boundaryNum": 1,
								"name": "RAMPUR WARD",
								"localname": "WARD_22",
								"longitude": 81.5531,
								"latitude": 20.69253,
								"label": "Block",
								"code": "WARD22",
								"children": [
									{
										"id": "8d3f15bf-ffa8-4045-a7b2-a3cac0418d24",
										"boundaryNum": 1,
										"name": "Rampur ward",
										"localname": "Rampur ward",
										"longitude": 81.5531,
										"latitude": 20.69253,
										"label": "Locality",
										"code": "DH22",
										"pincode":[492003],
										"area": "Area3",
										"children": []
									}
								]
							},
							{
								"id": "83a3cb20-0cef-4d48-b3b0-8036c870826e",
								"boundaryNum": 1,
								"name": "GOKULPUR WARD",
								"localname": "WARD_23",
								"longitude": 81.54992,
								"latitude": 20.69183,
								"label": "Block",
								"code": "WARD23",
								"children": [
									{
										"id": "a46ae6f0-433b-4c35-bef5-d857090e724f",
										"boundaryNum": 1,
										"name": "gokulpur ward",
										"localname": "gokulpur ward",
										"longitude": 81.54992,
										"latitude": 20.69183,
										"label": "Locality",
										"code": "DH23",
										"pincode":[492003],
										"area": "Area3",
										"children": []
									}
								]
							},
							{
								"id": "199f5a68-384d-49d4-9e07-504a174ead15",
								"boundaryNum": 1,
								"name": "SADAR DAKSHIN WARD",
								"localname": "WARD_24",
								"longitude": 81.55104,
								"latitude": 20.69628,
								"label": "Block",
								"code": "WARD24",
								"children": [
									{
										"id": "1951084c-7c09-49ca-9642-842ca2c274a3",
										"boundaryNum": 1,
										"name": "Sadar dakshin ward",
										"localname": "Sadar dakshin ward",
										"longitude": 81.55104,
										"latitude": 20.69628,
										"label": "Locality",
										"code": "DH24",
										"pincode": [492003],
										"area": "Area3",
										"children": []
									}
								]
							},
							{
								"id": "3b9c7586-5a33-481b-89e8-233cba433a5b",
								"boundaryNum": 1,
								"name": "BANSPARA WARD",
								"localname": "WARD_25",
								"longitude": 81.55104,
								"latitude": 20.69628,
								"label": "Block",
								"code": "WARD25",
								"children": [
									{
										"id": "30f474c9-ccaf-4216-9faa-5f77832abef2",
										"boundaryNum": 1,
										"name": "Banspara ward",
										"localname": "Banspara ward",
										"longitude": 81.55104,
										"latitude": 20.69628,
										"label": "Locality",
										"code": "DH25",
										"pincode": [492003],
										"area": "Area3",
										"children": []
									}
								]
							},
							{
								"id": "b8961a48-d459-4e7c-b469-7873083198df",
								"boundaryNum": 1,
								"name": "MARATHAPARA WARD",
								"localname": "WARD_26",
								"longitude": 81.54792,
								"latitude": 20.69815,
								"label": "Block",
								"code": "WARD26",
								"children": [
									{
										"id": "2386ffc9-3a36-4d3b-b5e2-d3ee0d123308",
										"boundaryNum": 1,
										"name": "Marathapara ward",
										"localname": "Marathapara ward",
										"longitude": 81.54792,
										"latitude": 20.69815,
										"label": "Locality",
										"code": "DH26",
										"pincode": [492003],
										"area": "Area3",
										"children": []
									}
								]
							},
							{
								"id": "a6549188-aa75-4071-ac3c-9a78af61a6fc",
								"boundaryNum": 1,
								"name": "POST OFFICE WARD",
								"localname": "WARD_27",
								"longitude": 81.54986,
								"latitude": 20.70043,
								"label": "Block",
								"code": "WARD27",
								"children": [
									{
										"id": "eb79267b-4c1c-404c-946c-95ae1885eefd",
										"boundaryNum": 1,
										"name": "Post office ward",
										"localname": "Post office ward",
										"longitude": 81.54986,
										"latitude": 20.70043,
										"label": "Locality",
										"code": "DH27",
										"pincode": [492003],
										"area": "Area3",
										"children": []
									}
								]
							},
							{
								"id": "d67fdcf3-023f-4c39-9ea2-ae63fb7b94de",
								"boundaryNum": 1,
								"name": "BANIYAPARA WARD",
								"localname": "WARD_28",
								"longitude": 81.54679,
								"latitude": 20.70214,
								"label": "Block",
								"code": "WARD28",
								"children": [
									{
										"id": "7163b298-0bc4-4d54-a4a3-8d0d8eb54cc7",
										"boundaryNum": 1,
										"name": "Baniyapara ward",
										"localname": "Baniyapara ward",
										"longitude": 81.54679,
										"latitude": 20.70214,
										"label": "Locality",
										"code": "DH28",
										"pincode": [492003],
										"area": "Area3",
										"children": []
									}
								]
							},
							{
								"id": "b12c173e-67c1-41a1-b479-a693537ae921",
								"boundaryNum": 1,
								"name": "MOTER STAND WARD",
								"localname": "WARD_29",
								"longitude": 81.54798,
								"latitude": 20.7055,
								"label": "Block",
								"code": "WARD29",
								"children": [
									{
										"id": "498a7812-7013-4040-82d9-7f5897563814",
										"boundaryNum": 1,
										"name": "Moter Stand ward",
										"localname": "Moter Stand ward",
										"longitude": 81.54798,
										"latitude": 20.7055,
										"label": "Locality",
										"code": "DH29",
										"pincode": [492003],
										"area": "Area3",
										"children": []
									}
								]
							},
							{
								"id": "75413d67-39d5-4728-8928-4c4c20e6b3dd",
								"boundaryNum": 1,
								"name": "RISAIPARA PURVA",
								"localname": "WARD_30",
								"longitude": 81.54778,
								"latitude": 20.70846,
								"label": "Block",
								"code": "WARD30",
								"children": [
									{
										"id": "4b2d76da-e277-40fb-9b1c-324a4c0503a8",
										"boundaryNum": 1,
										"name": "Risaipara purva",
										"localname": "Risaipara purva",
										"longitude": 81.54778,
										"latitude": 20.70846,
										"label": "Locality",
										"code": "DH30",
										"pincode": [492003],
										"area": "Area3",
										"children": []
									}
								]
							},
							{
								"id": "e0d5350b-defe-42af-8eed-65a91ff9bee1",
								"boundaryNum": 1,
								"name": "RAMSAGARPARA WARD",
								"localname": "WARD_31",
								"longitude": 81.48467,
								"latitude": 21.21483,
								"label": "Block",
								"code": "WARD31",
								"children": [
									{
										"id": "12f34f54-597b-4a0d-8d53-c7770c0b6a3f",
										"boundaryNum": 1,
										"name": "Ramsagarpara ward",
										"localname": "Ramsagarpara ward",
										"longitude": 81.48467,
										"latitude": 20.70425,
										"label": "Locality",
										"code": "DH31",
										"pincode": [492003],
										"area": "Area3",
										"children": []
									}
								]
							},
							{
								"id": "82be3a3e-1f56-4fe4-9322-fab7b1877ad9",
								"boundaryNum": 1,
								"name": "NAYAPARA WARD",
								"localname": "WARD_32",
								"longitude": 81.54297,
								"latitude": 20.70515,
								"label": "Block",
								"code": "WARD32",
								"children": [
									{
										"id": "8c89a784-cb4f-45f2-b276-35fd8b12495d",
										"boundaryNum": 1,
										"name": "Nayapara ward",
										"localname": "Nayapara ward",
										"longitude": 81.54297,
										"latitude": 20.70515,
										"label": "Locality",
										"code": "DH32",
										"pincode":[492003],
										"area": "Area3",
										"children": []
									}
								]
							},
							{
								"id": "b37851a2-b302-4abb-8be4-b76394d85643",
								"boundaryNum": 1,
								"name": "TIKRAPRA WARD",
								"localname": "WARD_33",
								"longitude": 81.53945,
								"latitude": 20.70268,
								"label": "Block",
								"code": "WARD33",
								"children": [
									{
										"id": "ace294a0-c75a-497d-be51-993acc5a254b",
										"boundaryNum": 1,
										"name": "Tikrapra ward",
										"localname": "Tikrapra ward",
										"longitude": 81.53945,
										"latitude": 20.70268,
										"label": "Locality",
										"code": "DH33",
										"pincode": [492003],
										"area": "Area3",
										"children": []
									}
								]
							},
							{
								"id": "aa4273f7-c13b-417c-b83c-cb8598adfa62",
								"boundaryNum": 1,
								"name": "AMBEDKAR WARD",
								"localname": "WARD_34",
								"longitude": 81.5427,
								"latitude": 20.69784,
								"label": "Block",
								"code": "WARD34",
								"children": [
									{
										"id": "2c5c8330-bde1-4f29-ab06-0e8ceffaff3f",
										"boundaryNum": 1,
										"name": "Ambedkar ward",
										"localname": "Ambedkar ward",
										"longitude": 81.5427,
										"latitude": 20.69784,
										"label": "Locality",
										"code": "DH34",
										"pincode": [492003],
										"area": "Area3",
										"children": []
									}
								]
							},
							{
								"id": "6ecea37c-8caa-4be1-bf63-a7751d513fe3",
								"boundaryNum": 1,
								"name": "SORID WARD",
								"localname": "WARD_35",
								"longitude": 81.52793,
								"latitude": 20.69986,
								"label": "Block",
								"code": "WARD35",
								"children": [
									{
										"id": "1828fab3-3f2b-453a-bec2-a743ac553826",
										"boundaryNum": 1,
										"name": "Sorid ward",
										"localname": "Sorid ward",
										"longitude": 81.52793,
										"latitude": 20.69986,
										"label": "Locality",
										"code": "DH35",
										"pincode": [492003],
										"area": "Area3",
										"children": []
									}
								]
							},
							{
								"id": "dd221bd9-43f2-4a83-ba05-d30f8c363729",
								"boundaryNum": 1,
								"name": "JODHAPUR WARD",
								"localname": "WARD_36",
								"longitude": 81.52879,
								"latitude": 20.70481,
								"label": "Block",
								"code": "WARD36",
								"children": [
									{
										"id": "8abe7bdd-48bb-4a56-ab61-7abc10aa7ef8",
										"boundaryNum": 1,
										"name": "Jodhapur ward",
										"localname": "Jodhapur ward",
										"longitude": 81.52879,
										"latitude": 20.70481,
										"label": "Locality",
										"code": "DH36",
										"pincode": [492003],
										"area": "Area3",
										"children": []
									}
								]
							},
							{
								"id": "c052195c-2342-4760-bd4d-f5d99d5bc1d3",
								"boundaryNum": 1,
								"name": "SWAMI VIVEKANAND WARD",
								"localname": "WARD_37",
								"longitude": 81.53566,
								"latitude": 20.71168,
								"label": "Block",
								"code": "WARD37",
								"children": [
									{
										"id": "a3d3b866-f732-4f0b-98be-87832aeb87ca",
										"boundaryNum": 1,
										"name": "Swami vivekanand ward",
										"localname": "Swami vivekanand ward",
										"longitude": 81.53566,
										"latitude": 20.71168,
										"label": "Locality",
										"code": "DH37",
										"pincode": [493221],
										"area": "Area3",
										"children": []
									}
								]
							},
							{
								"id": "bf6c4965-abda-41cf-a5bf-80820dd89f66",
								"boundaryNum": 1,
								"name": "DAKBANGLA WARD",
								"localname": "WARD_38",
								"longitude": 81.53484,
								"latitude": 20.7052	,
								"label": "Block",
								"code": "WARD38",
								"children": [
									{
										"id": "38f52d5f-e3e7-4477-adbe-9800ce534889",
										"boundaryNum": 1,
										"name": "Dakbangla ward",
										"localname": "Dakbangla ward",
										"longitude": 81.53484,
										"latitude": 20.7052	,
										"label": "Locality",
										"code": "DH38",
										"pincode": [493221],
										"area": "Area3",
										"children": []
									}
								]
							},
							{
								"id": "0ad423f5-209d-445d-a728-7e61b1d45d67",
								"boundaryNum": 1,
								"name": "RISAIPARA PASCHISHM",
								"localname": "WARD_39",
								"longitude": 81.54183,
								"latitude": 20.70734,
								"label": "Block",
								"code": "WARD39",
								"children": [
									{
										"id": "b9ab23e4-ce0b-452f-acd9-582047350b9a",
										"boundaryNum": 1,
										"name": "Risaipara paschishm",
										"localname": "Risaipara paschishm",
										"longitude": 81.54183,
										"latitude": 20.70734,
										"label": "Locality",
										"code": "DH39",
										"pincode": [493221],
										"area": "Area3",
										"children": []
									}
								]
							},
							{
								"id": "b00b56af-05b1-40cd-ada7-f5572bf7e107",
								"boundaryNum": 1,
								"name": "SUBHASHNAGAR WARD",
								"localname": "WARD_40",
								"longitude": 81.54099,
								"latitude": 20.71311,
								"label": "Block",
								"code": "WARD40",
								"children": [
									{
										"id": "cf0c675e-d2f7-4c8b-b4f4-512f22a4be5d",
										"boundaryNum": 1,
										"name": "Subhashnagar ward",
										"localname": "Subhashnagar ward",
										"longitude": 81.54099,
										"latitude": 20.71311,
										"label": "Locality",
										"code": "DH40",
										"pincode": [493221],
										"area": "Area1",
										"children": []
									}
								]
							}
						]
					}
				]
			}
		},
		{
			"hierarchyType": {
				"code": "ADMIN",
				"name": "ADMIN"
			},
			"boundary": {
				"id": 1,
				"boundaryNum": 1,
				"name": "Dhamtari",
				"localname": "Dhamtari",
				"longitude": 81.458008,
				"latitude": 21.231903,
				"label": "City",
				"code": "cg.dhamtari",
				"children": [
					{
						"id": "1c5dbabd-e04a-44e1-ac27-1fea19fac28f",
						"boundaryNum": 1,
						"name": "ZONE 1",
						"localname": "ZONE 1",
						"longitude": 81.458008,
						"latitude": 21.231903,
						"label": "Zone",
						"code": "BCZ1",
						"children": [
							{
								"id": "1c7d8d00-7678-4fd4-8dd2-2802daa7249b",
								"boundaryNum": 1,
								"name": "HATKESHAR WARD",
								"localname": "WARD_1",
								"longitude": 81.53622,
								"latitude": 20.72009,
								"label": "Block",
								"code": "WARD1",
								"children": [
									{
										"id": "6e286d0a-d141-49b2-8d3e-35cb7251fdee",
										"boundaryNum": 1,
										"name": "Hatkeshar ward",
										"localname": "Hatkeshar ward",
										"longitude": null,
										"latitude": null,
										"label": "Locality",
										"code": "DH01",
										"pincode": [
											492003
										],
										"area": "Area1",
										"children": []
									}
								]
							},
							{
								"id": "8b6a74db-d5d0-40ec-a810-df4a319acfb9",
								"boundaryNum": 1,
								"name": "SHITLAPARA WARD",
								"localname": "WARD_2",
								"longitude": 81.39937,
								"latitude": 20.71439,
								"label": "Block",
								"code": "WARD2",
								"children": [
									{
										"id": "f3cabc5a-8596-4c4c-ad05-9863342fa176",
										"boundaryNum": 1,
										"name": "shitlapara ward",
										"localname": "shitlapara ward",
										"longitude": 81.39937,
										"latitude": 20.71439,
										"label": "Locality",
										"code": "DH02",
										"pincode": [492003],
										"area": "Area1",
										"children": []
									}
								]
							},
							{
								"id": "eee94089-c88f-4d2e-a980-06b5372dd856",
								"boundaryNum": 1,
								"name": "LALBAGICHA WARD",
								"localname": "WARD_3",
								"longitude": 81.54588,
								"latitude": 20.71016,
								"label": "Block",
								"code": "WARD3",
								"children": [
									{
										"id": "11448ad3-ff6a-4026-8d9a-d3d0cdb75680",
										"boundaryNum": 1,
										"name": "Lalbagicha ward",
										"localname": "Lalbagicha ward",
										"longitude": 81.54588,
										"latitude": 20.71016,
										"label": "Locality",
										"code": "DH03",
										"pincode":[492003],
										"area": "Area1",
										"children": []
									}
								]
							},
							{
								"id": "4236b1c1-1f00-4b4f-a246-7c50af752d66",
								"boundaryNum": 1,
								"name": "SUNDERGANJ WARD",
								"localname": "WARD_4",
								"longitude": 81.54687,
								"latitude": 20.71936,
								"label": "Block",
								"code": "WARD4",
								"children": [
									{
										"id": "7a9a4d9a-9b88-4e5e-a496-293e3d03475a",
										"boundaryNum": 1,
										"name": "sunderganj ward",
										"localname": "sunderganj ward",
										"longitude": 81.54687,
										"latitude": 20.71936,
										"label": "Locality",
										"code": "DH04",
										"pincode": [492003],
										"area": "Area1",
										"children": []
									}
								]
							},
							{
								"id": "77ebd09e-7fa6-4d98-814e-1a8e1fe6c28b",
								"boundaryNum": 1,
								"name": "SARDAR VALLABH BHAI PATEL WARD",
								"localname": "WARD_5",
								"longitude": 81.55408,
								"latitude": 20.72732,
								"label": "Block",
								"code": "WARD5",
								"children": [
									{
										"id": "9fc4a924-7aed-4fd7-9bef-fa910776797f",
										"boundaryNum": 1,
										"name": "sardar vallabh bhai patel ward",
										"localname": "sardar vallabh bhai patel ward",
										"longitude": 81.55408,
										"latitude": 20.72732,
										"label": "Locality",
										"code": "DH05",
										"pincode": [492003],
										"area": "Area2",
										"children": []
									}
								]
							},
							{
								"id": "1fe5613e-69ae-4170-9573-297cec606d62",
								"boundaryNum": 1,
								"name": "BATHENA WARD",
								"localname": "WARD_6",
								"longitude": 81.55672,
								"latitude": 20.7222,
								"label": "Block",
								"code": "WARD6",
								"children": [
									{
										"id": "a8645f32-204d-401e-aa7c-6993cfff9624",
										"boundaryNum": 1,
										"name": "Bathena ward",
										"localname": "Bathena ward",
										"longitude": 81.55672,
										"latitude": 20.7222,
										"label": "Locality",
										"code": "DH06",
										"pincode":[492003],
										"area": "Area2",
										"children": []
									}
								]
							},
							{
								"id": "94d79e3b-44d7-41b8-bcc9-338de470b016",
								"boundaryNum": 1,
								"name": "AAUDYOGIK WARD",
								"localname": "WARD_7",
								"longitude": 81.5519,
								"latitude": 20.71546,
								"label": "Block",
								"code": "WARD7",
								"children": [
									{
										"id": "652bf15d-633f-4d73-93b2-22aaa591e7be",
										"boundaryNum": 1,
										"name": "Aaudyogik ward",
										"localname": "Aaudyogik ward",
										"longitude": 81.5519,
										"latitude": 20.71546,
										"label": "Locality",
										"code": "DH07",
										"pincode": [492003],
										"area": "Area2",
										"children": []
									}
								]
							},
							{
								"id": "56cbb28e-c1fd-4375-8c27-bf10c666ffd0",
								"boundaryNum": 1,
								"name": "ADHARI NAVAGAON WARD",
								"localname": "WARD_8",
								"longitude": 81.55755,
								"latitude": 20.71394,
								"label": "Block",
								"code": "WARD8",
								"children": [
									{
										"id": "0b3b503d-1cf8-4f46-859c-f224616a57ee",
										"boundaryNum": 1,
										"name": "Adhari navagaon ward",
										"localname": "Adhari navagaon ward",
										"longitude": 81.55755,
										"latitude": 20.71394,
										"label": "Locality",
										"code": "DH08",
										"pincode":[492003],
										"area": "Area2",
										"children": []
									}
								]
							},
							{
								"id": "541edcf1-e40b-4c89-806e-0fb7c78db168",
								"boundaryNum": 1,
								"name": "MAKESHWAR WARD",
								"localname": "WARD_9",
								"longitude": 81.55202,
								"latitude": 20.71042,
								"label": "Block",
								"code": "WARD9",
								"children": [
									{
										"id": "acf47450-c3e0-4a6d-a78c-0678f0f74035",
										"boundaryNum": 1,
										"name": "Makeshwar ward",
										"localname": "Makeshwar ward",
										"longitude": 81.55202,
										"latitude": 20.71042,
										"label": "Locality",
										"code": "DH09",
										"pincode":[493221],
										"area": "Area2",
										"children": []
									}
								]
							},
							{
								"id": "64d2ca12-fc43-459b-aeb1-60d5955a8b1c",
								"boundaryNum": 1,
								"name": "SHYAMAPRASAD MUKHERJI WARD",
								"localname": "WARD_10",
								"longitude": 81.55935,
								"latitude": 20.70792,
								"label": "Block",
								"code": "WARD10",
								"children": [
									{
										"id": "b68957d3-63ba-4755-a640-88b58e9fe4f0",
										"boundaryNum": 1,
										"name": "Shyamaprasad mukherji ward",
										"localname": "Shyamaprasad mukherji ward",
										"longitude": 81.55935,
										"latitude": 20.70792,
										"label": "Locality",
										"code": "DH10",
										"pincode":[493221],
										"area": "Area2",
										"children": []
									}
								]
							},
							{
								"id": "9dfddd58-8405-4ac1-8bc2-7380197c116c",
								"boundaryNum": 1,
								"name": "AAMAPARA WARD",
								"localname": "WARD_11",
								"longitude": 81.55025,
								"latitude": 20.70726,
								"label": "Block",
								"code": "WARD11",
								"children": [
									{
										"id": "4c51c978-709b-4658-b5c0-4538d8faf165",
										"boundaryNum": 1,
										"name": "Aamapara ward",
										"localname": "Aamapara ward",
										"longitude": 81.55025,
										"latitude": 20.70726,
										"label": "Locality",
										"code": "DH11",
										"pincode":[493221],
										"area": "Area2",
										"children": []
									}
								]
							},
							{
								"id": "8237ec14-77d7-47c8-ad9e-1ab24dc7bfd1",
								"boundaryNum": 1,
								"name": "MAHANT GHASIDAS WARD",
								"localname": "WARD_12",
								"longitude": 81.5545,
								"latitude": 20.7066,
								"label": "Block",
								"code": "WARD12",
								"children": [
									{
										"id": "40e9b369-41b7-4112-9c05-defe46491b41",
										"boundaryNum": 1,
										"name": "Mahant ghasidas ward",
										"localname": "Mahant ghasidas ward",
										"longitude": 81.5545,
										"latitude": 20.7066,
										"label": "Locality",
										"code": "DH12",
										"pincode":[493221],
										"area": "Area2",
										"children": []
									}
								]
							},
							{
								"id": "504830d6-f9e3-4052-8538-673437fc0937",
								"boundaryNum": 1,
								"name": "SALHEWARPARA WARD",
								"localname": "WARD_13",
								"longitude": 81.55283,
								"latitude": 20.70536,
								"label": "Block",
								"code": "WARD13",
								"children": [
									{
										"id": "3adb91b5-fdfd-4a1e-b69d-bfa8f4d84a2c",
										"boundaryNum": 1,
										"name": "Salhewarpara ward",
										"localname": "Salhewarpara ward",
										"longitude": 81.55283,
										"latitude": 20.70536,
										"label": "Locality",
										"code": "DH13",
										"pincode":[493221],
										"area": "Area2",
										"children": []
									}
								]
							},
							{
								"id": "a08750d0-b3fd-4ff5-ba24-d4729d1ef376",
								"boundaryNum": 1,
								"name": "SADAR UTTAR WARD",
								"localname": "WARD_14",
								"longitude": 81.55111,
								"latitude": 20.70318,
								"label": "Block",
								"code": "WARD14",
								"children": [
									{
										"id": "cc4598f8-2d2e-4dc4-8807-eeab60bcc105",
										"boundaryNum": 1,
										"name": "Sadar uttar ward",
										"localname": "Sadar uttar ward",
										"longitude": 81.55111,
										"latitude": 20.70318,
										"label": "Locality",
										"code": "DH14",
										"pincode":[493221],
										"area": "Area2",
										"children": []
									}
								]
							},
							{
								"id": "2f52aaf8-5ce9-4966-9b2e-6217cbe19714",
								"boundaryNum": 1,
								"name": "BRAMHANPARA WARD",
								"localname": "WARD_15",
								"longitude": 81.55231,
								"latitude": 20.70037,
								"label": "Block",
								"code": "WARD15",
								"children": [
									{
										"id": "f1629cc6-a575-4b33-826a-fe87cd02a016",
										"boundaryNum": 1,
										"name": "Bramhanpara ward",
										"localname": "Bramhanpara ward",
										"longitude": 81.55231,
										"latitude": 20.70037,
										"label": "Locality",
										"code": "DH15",
										"pincode":[493221],
										"area": "Area2",
										"children": []
									}
								]
							},
							{
								"id": "d5b787fc-f2ad-4994-ac76-652094057007",
								"boundaryNum": 1,
								"name": "KOSHTAPARA WARD",
								"localname": "WARD_16",
								"longitude": 81.55474,
								"latitude": 20.70153,
								"label": "Block",
								"code": "WARD16",
								"children": [
									{
										"id": "45bfa2b7-99b1-4d86-a6ba-f3a3dc09bfb5",
										"boundaryNum": 1,
										"name": "Koshtapara ward",
										"localname": "Koshtapara ward",
										"longitude": 81.55474,
										"latitude": 20.70153,
										"label": "Locality",
										"code": "DH16",
										"pincode":[493221],
										"area": "Area2",
										"children": []
									}
								]
							},
							{
								"id": "ce011818-c33f-464f-86f8-ddddf9f84632",
								"boundaryNum": 1,
								"name": "JALAMPUR WARD",
								"localname": "WARD_17",
								"longitude": 81.56111,
								"latitude": 20.70107,
								"label": "Block",
								"code": "WARD17",
								"children": [
									{
										"id": "0f04dae6-7d44-40d7-addf-3c6e79c46120",
										"boundaryNum": 1,
										"name": "Jalampur ward",
										"localname": "Jalampur ward",
										"longitude": 81.56111,
										"latitude": 20.70107,
										"label": "Locality",
										"code": "DH17",
										"pincode": [493221],
										"area": "Area2",
										"children": []
									}
								]
							},
							{
								"id": "7dc79bf2-5da9-421b-961a-caae97c3bd82",
								"boundaryNum": 1,
								"name": "VINDHYAVASINI WARD",
								"localname": "WARD_18",
								"longitude": 81.55666,
								"latitude": 20.69627,
								"label": "Block",
								"code": "WARD18",
								"children": [
									{
										"id": "3987e100-7729-41ac-892a-43728ec214e8",
										"boundaryNum": 1,
										"name": "Vindhyavasini ward",
										"localname": "Vindhyavasini ward",
										"longitude": 81.55666,
										"latitude": 20.69627,
										"label": "Locality",
										"code": "DH18",
										"pincode": [493221],
										"area": "Area2",
										"children": []
									}
								]
							},
							{
								"id": "ecb3a6b1-0248-437e-aa2e-597339ee4d85",
								"boundaryNum": 1,
								"name": "DANITOLA WARD",
								"localname": "WARD_19",
								"longitude": 81.56398,
								"latitude": 20.69275,
								"label": "Block",
								"code": "WARD19",
								"children": [
									{
										"id": "c4189fe2-4531-4e04-b3a0-e8228ec1a23d",
										"boundaryNum": 1,
										"name": "Danitola ward",
										"localname": "Danitola ward",
										"longitude": 81.56398,
										"latitude": 20.69275,
										"label": "Locality",
										"code": "DH19",
										"pincode": [493221],
										"area": "Area2",
										"children": []
									}
								]
							},
							{
								"id": "6a39ee47-629e-408f-ac5d-70b9278d1504",
								"boundaryNum": 1,
								"name": "MAHATMA GANDHI WARD",
								"localname": "WARD_20",
								"longitude": 81.55523,
								"latitude": 20.68429,
								"label": "Block",
								"code": "WARD20",
								"children": [
									{
										"id": "fa2b351a-8318-41d4-aea1-1b3a061da1a2",
										"boundaryNum": 1,
										"name": "Mahatma gandhi ward",
										"localname": "Mahatma gandhi ward",
										"longitude": 81.55523,
										"latitude": 20.68429,
										"label": "Locality",
										"code": "DH20",
										"pincode": [492003],
										"area": "Area2",
										"children": []
									}
								]
							},
							{
								"id": "7b130a6c-5915-4cf3-a211-fe3d0ed073f3",
								"boundaryNum": 1,
								"name": "MAHIMASAGAR WARD",
								"localname": "WARD_21",
								"longitude": 81.56026,
								"latitude": 20.68616,
								"label": "Block",
								"code": "WARD21",
								"children": [
									{
										"id": "37f37419-7044-4b7e-b576-166bd482f48b",
										"boundaryNum": 1,
										"name": "Mahimasagar ward",
										"localname": "Mahimasagar ward",
										"longitude": 81.56026,
										"latitude": 20.68616,
										"label": "Locality",
										"code": "DH21",
										"pincode":[492003],
										"area": "Area2",
										"children": []
									}
								]
							},
							{
								"id": "4e53381b-7678-4a72-af5b-63060d95f588",
								"boundaryNum": 1,
								"name": "RAMPUR WARD",
								"localname": "WARD_22",
								"longitude": 81.5531,
								"latitude": 20.69253,
								"label": "Block",
								"code": "WARD22",
								"children": [
									{
										"id": "8d3f15bf-ffa8-4045-a7b2-a3cac0418d24",
										"boundaryNum": 1,
										"name": "Rampur ward",
										"localname": "Rampur ward",
										"longitude": 81.5531,
										"latitude": 20.69253,
										"label": "Locality",
										"code": "DH22",
										"pincode":[492003],
										"area": "Area3",
										"children": []
									}
								]
							},
							{
								"id": "83a3cb20-0cef-4d48-b3b0-8036c870826e",
								"boundaryNum": 1,
								"name": "GOKULPUR WARD",
								"localname": "WARD_23",
								"longitude": 81.54992,
								"latitude": 20.69183,
								"label": "Block",
								"code": "WARD23",
								"children": [
									{
										"id": "a46ae6f0-433b-4c35-bef5-d857090e724f",
										"boundaryNum": 1,
										"name": "gokulpur ward",
										"localname": "gokulpur ward",
										"longitude": 81.54992,
										"latitude": 20.69183,
										"label": "Locality",
										"code": "DH23",
										"pincode":[492003],
										"area": "Area3",
										"children": []
									}
								]
							},
							{
								"id": "199f5a68-384d-49d4-9e07-504a174ead15",
								"boundaryNum": 1,
								"name": "SADAR DAKSHIN WARD",
								"localname": "WARD_24",
								"longitude": 81.55104,
								"latitude": 20.69628,
								"label": "Block",
								"code": "WARD24",
								"children": [
									{
										"id": "1951084c-7c09-49ca-9642-842ca2c274a3",
										"boundaryNum": 1,
										"name": "Sadar dakshin ward",
										"localname": "Sadar dakshin ward",
										"longitude": 81.55104,
										"latitude": 20.69628,
										"label": "Locality",
										"code": "DH24",
										"pincode": [492003],
										"area": "Area3",
										"children": []
									}
								]
							},
							{
								"id": "3b9c7586-5a33-481b-89e8-233cba433a5b",
								"boundaryNum": 1,
								"name": "BANSPARA WARD",
								"localname": "WARD_25",
								"longitude": 81.55104,
								"latitude": 20.69628,
								"label": "Block",
								"code": "WARD25",
								"children": [
									{
										"id": "30f474c9-ccaf-4216-9faa-5f77832abef2",
										"boundaryNum": 1,
										"name": "Banspara ward",
										"localname": "Banspara ward",
										"longitude": 81.55104,
										"latitude": 20.69628,
										"label": "Locality",
										"code": "DH25",
										"pincode": [492003],
										"area": "Area3",
										"children": []
									}
								]
							},
							{
								"id": "b8961a48-d459-4e7c-b469-7873083198df",
								"boundaryNum": 1,
								"name": "MARATHAPARA WARD",
								"localname": "WARD_26",
								"longitude": 81.54792,
								"latitude": 20.69815,
								"label": "Block",
								"code": "WARD26",
								"children": [
									{
										"id": "2386ffc9-3a36-4d3b-b5e2-d3ee0d123308",
										"boundaryNum": 1,
										"name": "Marathapara ward",
										"localname": "Marathapara ward",
										"longitude": 81.54792,
										"latitude": 20.69815,
										"label": "Locality",
										"code": "DH26",
										"pincode": [492003],
										"area": "Area3",
										"children": []
									}
								]
							},
							{
								"id": "a6549188-aa75-4071-ac3c-9a78af61a6fc",
								"boundaryNum": 1,
								"name": "POST OFFICE WARD",
								"localname": "WARD_27",
								"longitude": 81.54986,
								"latitude": 20.70043,
								"label": "Block",
								"code": "WARD27",
								"children": [
									{
										"id": "eb79267b-4c1c-404c-946c-95ae1885eefd",
										"boundaryNum": 1,
										"name": "Post office ward",
										"localname": "Post office ward",
										"longitude": 81.54986,
										"latitude": 20.70043,
										"label": "Locality",
										"code": "DH27",
										"pincode": [492003],
										"area": "Area3",
										"children": []
									}
								]
							},
							{
								"id": "d67fdcf3-023f-4c39-9ea2-ae63fb7b94de",
								"boundaryNum": 1,
								"name": "BANIYAPARA WARD",
								"localname": "WARD_28",
								"longitude": 81.54679,
								"latitude": 20.70214,
								"label": "Block",
								"code": "WARD28",
								"children": [
									{
										"id": "7163b298-0bc4-4d54-a4a3-8d0d8eb54cc7",
										"boundaryNum": 1,
										"name": "Baniyapara ward",
										"localname": "Baniyapara ward",
										"longitude": 81.54679,
										"latitude": 20.70214,
										"label": "Locality",
										"code": "DH28",
										"pincode": [492003],
										"area": "Area3",
										"children": []
									}
								]
							},
							{
								"id": "b12c173e-67c1-41a1-b479-a693537ae921",
								"boundaryNum": 1,
								"name": "MOTER STAND WARD",
								"localname": "WARD_29",
								"longitude": 81.54798,
								"latitude": 20.7055,
								"label": "Block",
								"code": "WARD29",
								"children": [
									{
										"id": "498a7812-7013-4040-82d9-7f5897563814",
										"boundaryNum": 1,
										"name": "Moter Stand ward",
										"localname": "Moter Stand ward",
										"longitude": 81.54798,
										"latitude": 20.7055,
										"label": "Locality",
										"code": "DH29",
										"pincode": [492003],
										"area": "Area3",
										"children": []
									}
								]
							},
							{
								"id": "75413d67-39d5-4728-8928-4c4c20e6b3dd",
								"boundaryNum": 1,
								"name": "RISAIPARA PURVA",
								"localname": "WARD_30",
								"longitude": 81.54778,
								"latitude": 20.70846,
								"label": "Block",
								"code": "WARD30",
								"children": [
									{
										"id": "4b2d76da-e277-40fb-9b1c-324a4c0503a8",
										"boundaryNum": 1,
										"name": "Risaipara purva",
										"localname": "Risaipara purva",
										"longitude": 81.54778,
										"latitude": 20.70846,
										"label": "Locality",
										"code": "DH30",
										"pincode": [492003],
										"area": "Area3",
										"children": []
									}
								]
							},
							{
								"id": "e0d5350b-defe-42af-8eed-65a91ff9bee1",
								"boundaryNum": 1,
								"name": "RAMSAGARPARA WARD",
								"localname": "WARD_31",
								"longitude": 81.48467,
								"latitude": 21.21483,
								"label": "Block",
								"code": "WARD31",
								"children": [
									{
										"id": "12f34f54-597b-4a0d-8d53-c7770c0b6a3f",
										"boundaryNum": 1,
										"name": "Ramsagarpara ward",
										"localname": "Ramsagarpara ward",
										"longitude": 81.48467,
										"latitude": 20.70425,
										"label": "Locality",
										"code": "DH31",
										"pincode": [492003],
										"area": "Area3",
										"children": []
									}
								]
							},
							{
								"id": "82be3a3e-1f56-4fe4-9322-fab7b1877ad9",
								"boundaryNum": 1,
								"name": "NAYAPARA WARD",
								"localname": "WARD_32",
								"longitude": 81.54297,
								"latitude": 20.70515,
								"label": "Block",
								"code": "WARD32",
								"children": [
									{
										"id": "8c89a784-cb4f-45f2-b276-35fd8b12495d",
										"boundaryNum": 1,
										"name": "Nayapara ward",
										"localname": "Nayapara ward",
										"longitude": 81.54297,
										"latitude": 20.70515,
										"label": "Locality",
										"code": "DH32",
										"pincode":[492003],
										"area": "Area3",
										"children": []
									}
								]
							},
							{
								"id": "b37851a2-b302-4abb-8be4-b76394d85643",
								"boundaryNum": 1,
								"name": "TIKRAPRA WARD",
								"localname": "WARD_33",
								"longitude": 81.53945,
								"latitude": 20.70268,
								"label": "Block",
								"code": "WARD33",
								"children": [
									{
										"id": "ace294a0-c75a-497d-be51-993acc5a254b",
										"boundaryNum": 1,
										"name": "Tikrapra ward",
										"localname": "Tikrapra ward",
										"longitude": 81.53945,
										"latitude": 20.70268,
										"label": "Locality",
										"code": "DH33",
										"pincode": [492003],
										"area": "Area3",
										"children": []
									}
								]
							},
							{
								"id": "aa4273f7-c13b-417c-b83c-cb8598adfa62",
								"boundaryNum": 1,
								"name": "AMBEDKAR WARD",
								"localname": "WARD_34",
								"longitude": 81.5427,
								"latitude": 20.69784,
								"label": "Block",
								"code": "WARD34",
								"children": [
									{
										"id": "2c5c8330-bde1-4f29-ab06-0e8ceffaff3f",
										"boundaryNum": 1,
										"name": "Ambedkar ward",
										"localname": "Ambedkar ward",
										"longitude": 81.5427,
										"latitude": 20.69784,
										"label": "Locality",
										"code": "DH34",
										"pincode": [492003],
										"area": "Area3",
										"children": []
									}
								]
							},
							{
								"id": "6ecea37c-8caa-4be1-bf63-a7751d513fe3",
								"boundaryNum": 1,
								"name": "SORID WARD",
								"localname": "WARD_35",
								"longitude": 81.52793,
								"latitude": 20.69986,
								"label": "Block",
								"code": "WARD35",
								"children": [
									{
										"id": "1828fab3-3f2b-453a-bec2-a743ac553826",
										"boundaryNum": 1,
										"name": "Sorid ward",
										"localname": "Sorid ward",
										"longitude": 81.52793,
										"latitude": 20.69986,
										"label": "Locality",
										"code": "DH35",
										"pincode": [492003],
										"area": "Area3",
										"children": []
									}
								]
							},
							{
								"id": "dd221bd9-43f2-4a83-ba05-d30f8c363729",
								"boundaryNum": 1,
								"name": "JODHAPUR WARD",
								"localname": "WARD_36",
								"longitude": 81.52879,
								"latitude": 20.70481,
								"label": "Block",
								"code": "WARD36",
								"children": [
									{
										"id": "8abe7bdd-48bb-4a56-ab61-7abc10aa7ef8",
										"boundaryNum": 1,
										"name": "Jodhapur ward",
										"localname": "Jodhapur ward",
										"longitude": 81.52879,
										"latitude": 20.70481,
										"label": "Locality",
										"code": "DH36",
										"pincode": [492003],
										"area": "Area3",
										"children": []
									}
								]
							},
							{
								"id": "c052195c-2342-4760-bd4d-f5d99d5bc1d3",
								"boundaryNum": 1,
								"name": "SWAMI VIVEKANAND WARD",
								"localname": "WARD_37",
								"longitude": 81.53566,
								"latitude": 20.71168,
								"label": "Block",
								"code": "WARD37",
								"children": [
									{
										"id": "a3d3b866-f732-4f0b-98be-87832aeb87ca",
										"boundaryNum": 1,
										"name": "Swami vivekanand ward",
										"localname": "Swami vivekanand ward",
										"longitude": 81.53566,
										"latitude": 20.71168,
										"label": "Locality",
										"code": "DH37",
										"pincode": [493221],
										"area": "Area3",
										"children": []
									}
								]
							},
							{
								"id": "bf6c4965-abda-41cf-a5bf-80820dd89f66",
								"boundaryNum": 1,
								"name": "DAKBANGLA WARD",
								"localname": "WARD_38",
								"longitude": 81.53484,
								"latitude": 20.7052	,
								"label": "Block",
								"code": "WARD38",
								"children": [
									{
										"id": "38f52d5f-e3e7-4477-adbe-9800ce534889",
										"boundaryNum": 1,
										"name": "Dakbangla ward",
										"localname": "Dakbangla ward",
										"longitude": 81.53484,
										"latitude": 20.7052	,
										"label": "Locality",
										"code": "DH38",
										"pincode": [493221],
										"area": "Area3",
										"children": []
									}
								]
							},
							{
								"id": "0ad423f5-209d-445d-a728-7e61b1d45d67",
								"boundaryNum": 1,
								"name": "RISAIPARA PASCHISHM",
								"localname": "WARD_39",
								"longitude": 81.54183,
								"latitude": 20.70734,
								"label": "Block",
								"code": "WARD39",
								"children": [
									{
										"id": "b9ab23e4-ce0b-452f-acd9-582047350b9a",
										"boundaryNum": 1,
										"name": "Risaipara paschishm",
										"localname": "Risaipara paschishm",
										"longitude": 81.54183,
										"latitude": 20.70734,
										"label": "Locality",
										"code": "DH39",
										"pincode": [493221],
										"area": "Area3",
										"children": []
									}
								]
							},
							{
								"id": "b00b56af-05b1-40cd-ada7-f5572bf7e107",
								"boundaryNum": 1,
								"name": "SUBHASHNAGAR WARD",
								"localname": "WARD_40",
								"longitude": 81.54099,
								"latitude": 20.71311,
								"label": "Block",
								"code": "WARD40",
								"children": [
									{
										"id": "cf0c675e-d2f7-4c8b-b4f4-512f22a4be5d",
										"boundaryNum": 1,
										"name": "Subhashnagar ward",
										"localname": "Subhashnagar ward",
										"longitude": 81.54099,
										"latitude": 20.71311,
										"label": "Locality",
										"code": "DH40",
										"pincode": [493221],
										"area": "Area1",
										"children": []
									}
								]
							}
						]
					}
				]
			}
		}
	]
}
